{
  "n_clusters": null,
  "clustering_enabled": false,
  "dt_minutes": 15,
  "train_end_date": "2023-01-01",
  "val_end_date": "2023-07-01",
  "random_state": 42,
  "total_stations": 338,
  "cluster_centroids": {
    "2": {
      "lat": -34.59242413,
      "lon": -58.37470989,
      "station_count": 1,
      "station_name": "002 - Retiro I"
    },
    "3": {
      "lat": -34.611032,
      "lon": -58.3682604,
      "station_count": 1,
      "station_name": "003 - ADUANA"
    },
    "4": {
      "lat": -34.601822,
      "lon": -58.368781,
      "station_count": 1,
      "station_name": "004 - Plaza Roma"
    },
    "5": {
      "lat": -34.5805497,
      "lon": -58.4209542,
      "station_count": 1,
      "station_name": "005 - Plaza Italia"
    },
    "6": {
      "lat": -34.628526,
      "lon": -58.369758,
      "station_count": 1,
      "station_name": "006 - Parque Lezama"
    },
    "7": {
      "lat": -34.606498,
      "lon": -58.381098,
      "station_count": 1,
      "station_name": "007 - OBELISCO"
    },
    "8": {
      "lat": -34.6094218,
      "lon": -58.3893364,
      "station_count": 1,
      "station_name": "008 - Congreso"
    },
    "9": {
      "lat": -34.585443,
      "lon": -58.407741,
      "station_count": 1,
      "station_name": "009 - Parque Las Heras"
    },
    "12": {
      "lat": -34.5927096,
      "lon": -58.388807,
      "station_count": 1,
      "station_name": "012 - Plaza Vicente Lopez"
    },
    "13": {
      "lat": -34.61009,
      "lon": -58.406,
      "station_count": 1,
      "station_name": "013 - ONCE"
    },
    "14": {
      "lat": -34.577424,
      "lon": -58.426387,
      "station_count": 1,
      "station_name": "014 - Pacifico"
    },
    "17": {
      "lat": -34.6064101,
      "lon": -58.4187306,
      "station_count": 1,
      "station_name": "017 - Plaza Almagro"
    },
    "20": {
      "lat": -34.5809751,
      "lon": -58.4443269,
      "station_count": 1,
      "station_name": "020 - DISTRITO AUDIOVISUAL"
    },
    "21": {
      "lat": -34.640111,
      "lon": -58.406432,
      "station_count": 1,
      "station_name": "021 - Parque Patricios"
    },
    "22": {
      "lat": -34.5938629,
      "lon": -58.3825498,
      "station_count": 1,
      "station_name": "022 - Arenales"
    },
    "23": {
      "lat": -34.600139,
      "lon": -58.379836,
      "station_count": 1,
      "station_name": "023 - Suipacha"
    },
    "24": {
      "lat": -34.610583,
      "lon": -58.3808943,
      "station_count": 1,
      "station_name": "024 - ALSINA"
    },
    "25": {
      "lat": -34.5894269,
      "lon": -58.4161178,
      "station_count": 1,
      "station_name": "025 - Plaza Guemes"
    },
    "26": {
      "lat": -34.600752,
      "lon": -58.3638723,
      "station_count": 1,
      "station_name": "026 - JUANA MANSO I"
    },
    "27": {
      "lat": -34.599068,
      "lon": -58.3900887,
      "station_count": 1,
      "station_name": "027 - Montevideo"
    },
    "29": {
      "lat": -34.6079414,
      "lon": -58.4335573,
      "station_count": 1,
      "station_name": "029 - Parque Centenario"
    },
    "30": {
      "lat": -34.5908211,
      "lon": -58.3973698,
      "station_count": 1,
      "station_name": "030 - Pe\u00f1a"
    },
    "31": {
      "lat": -34.6033431,
      "lon": -58.439521,
      "station_count": 1,
      "station_name": "031 - Padilla"
    },
    "32": {
      "lat": -34.6072074,
      "lon": -58.3735984,
      "station_count": 1,
      "station_name": "032 - Catedral"
    },
    "33": {
      "lat": -34.5970909,
      "lon": -58.3989807,
      "station_count": 1,
      "station_name": "033 - Facultad de Medicina"
    },
    "35": {
      "lat": -34.5964246,
      "lon": -58.371847,
      "station_count": 1,
      "station_name": "035 - INGENIERO BUTTY"
    },
    "36": {
      "lat": -34.6045481,
      "lon": -58.3767677,
      "station_count": 1,
      "station_name": "036 - MAIP\u00da"
    },
    "38": {
      "lat": -34.5970497,
      "lon": -58.3828403,
      "station_count": 1,
      "station_name": "038 - Plaza Libertad"
    },
    "41": {
      "lat": -34.6371232,
      "lon": -58.4058883,
      "station_count": 1,
      "station_name": "041 - PARQUE PATRICIOS II"
    },
    "42": {
      "lat": -34.6046074,
      "lon": -58.3800307,
      "station_count": 1,
      "station_name": "042 - Diagonal Norte"
    },
    "43": {
      "lat": -34.584018,
      "lon": -58.389921,
      "station_count": 1,
      "station_name": "334 - CENTRO DE EXPOSICIONES"
    },
    "44": {
      "lat": -34.5755148,
      "lon": -58.4138829,
      "station_count": 1,
      "station_name": "044 - Ecoparque"
    },
    "45": {
      "lat": -34.6018635,
      "lon": -58.3866934,
      "station_count": 1,
      "station_name": "045 - Uruguay"
    },
    "46": {
      "lat": -34.6163012,
      "lon": -58.3743749,
      "station_count": 1,
      "station_name": "046 - Chile"
    },
    "48": {
      "lat": -34.624255,
      "lon": -58.362131,
      "station_count": 1,
      "station_name": "034 - Colonia Express"
    },
    "49": {
      "lat": -34.6290527,
      "lon": -58.422611,
      "station_count": 1,
      "station_name": "049 - 33 Orientales"
    },
    "50": {
      "lat": -34.5837348,
      "lon": -58.4010798,
      "station_count": 1,
      "station_name": "050 - Hospital Rivadavia"
    },
    "51": {
      "lat": -34.6014776,
      "lon": -58.3821261,
      "station_count": 1,
      "station_name": "051 - TUCUMAN"
    },
    "54": {
      "lat": -34.5982097,
      "lon": -58.4220694,
      "station_count": 1,
      "station_name": "054 - Acu\u00f1a de Figueroa"
    },
    "55": {
      "lat": -34.5994122,
      "lon": -58.36966404,
      "station_count": 1,
      "station_name": "055 - Bouchard"
    },
    "56": {
      "lat": -34.588567,
      "lon": -58.425999,
      "station_count": 1,
      "station_name": "056 - Plaza Palermo Viejo"
    },
    "57": {
      "lat": -34.6126898,
      "lon": -58.37125,
      "station_count": 1,
      "station_name": "057 - BELGRANO"
    },
    "58": {
      "lat": -34.5752773,
      "lon": -58.4346883,
      "station_count": 1,
      "station_name": "058 - Ministro Carranza"
    },
    "59": {
      "lat": -34.617654,
      "lon": -58.380565,
      "station_count": 1,
      "station_name": "018 - Independencia"
    },
    "60": {
      "lat": -34.6016509,
      "lon": -58.371079,
      "station_count": 1,
      "station_name": "060 - 25 De Mayo"
    },
    "61": {
      "lat": -34.6189273,
      "lon": -58.5051769,
      "station_count": 1,
      "station_name": "098 - BENITO JUAREZ"
    },
    "63": {
      "lat": -34.5986,
      "lon": -58.373062,
      "station_count": 1,
      "station_name": "063 - Reconquista"
    },
    "64": {
      "lat": -34.5936508,
      "lon": -58.3941087,
      "station_count": 1,
      "station_name": "064 - RIOBAMBA"
    },
    "65": {
      "lat": -34.5873124,
      "lon": -58.4157873,
      "station_count": 1,
      "station_name": "065 - Juli\u00e1n \u00c1lvarez"
    },
    "66": {
      "lat": -34.5945475,
      "lon": -58.4138713,
      "station_count": 1,
      "station_name": "066 - Billinghurst"
    },
    "68": {
      "lat": -34.552148,
      "lon": -58.480464,
      "station_count": 1,
      "station_name": "105 - PARQUE SAAVEDRA"
    },
    "69": {
      "lat": -34.5961006,
      "lon": -58.4046092,
      "station_count": 1,
      "station_name": "069 - Ecuador"
    },
    "70": {
      "lat": -34.5926862,
      "lon": -58.4260597,
      "station_count": 1,
      "station_name": "070 - ARAOZ"
    },
    "71": {
      "lat": -34.6026673,
      "lon": -58.3833559,
      "station_count": 1,
      "station_name": "071 - CERRITO"
    },
    "73": {
      "lat": -34.6306814,
      "lon": -58.3718235,
      "station_count": 1,
      "station_name": "073 - Ruy D\u00edaz de Guzm\u00e1n"
    },
    "74": {
      "lat": -34.60439,
      "lon": -58.43454,
      "station_count": 1,
      "station_name": "074 - INSTITUTO LELOIR"
    },
    "75": {
      "lat": -34.6122976,
      "lon": -58.3989871,
      "station_count": 1,
      "station_name": "075 - Plaza Primero de Mayo"
    },
    "76": {
      "lat": -34.6074084,
      "lon": -58.3950548,
      "station_count": 1,
      "station_name": "076 - Ayacucho"
    },
    "77": {
      "lat": -34.581135,
      "lon": -58.501487,
      "station_count": 1,
      "station_name": "109 - ESTACION PUEYRREDON"
    },
    "79": {
      "lat": -34.61189,
      "lon": -58.36393,
      "station_count": 1,
      "station_name": "079 - AZUCENA VILLAFLOR"
    },
    "80": {
      "lat": -34.6245807,
      "lon": -58.4341232,
      "station_count": 1,
      "station_name": "080 - VALLE"
    },
    "82": {
      "lat": -34.6078917,
      "lon": -58.4263947,
      "station_count": 1,
      "station_name": "082 - HOSPITAL ITALIANO"
    },
    "83": {
      "lat": -34.603269,
      "lon": -58.3893728,
      "station_count": 1,
      "station_name": "083 - Paran\u00e1"
    },
    "84": {
      "lat": -34.6042288,
      "lon": -58.3937375,
      "station_count": 1,
      "station_name": "084 - Lavalle"
    },
    "85": {
      "lat": -34.5948057,
      "lon": -58.4091784,
      "station_count": 1,
      "station_name": "085 - AGUERO"
    },
    "86": {
      "lat": -34.6212681,
      "lon": -58.4016808,
      "station_count": 1,
      "station_name": "086 - SAAVEDRA"
    },
    "87": {
      "lat": -34.619845,
      "lon": -58.4314942,
      "station_count": 1,
      "station_name": "087 - Guayaquil"
    },
    "89": {
      "lat": -34.5825475,
      "lon": -58.4056671,
      "station_count": 1,
      "station_name": "089 - Cabello"
    },
    "91": {
      "lat": -34.6174482,
      "lon": -58.397602,
      "station_count": 1,
      "station_name": "091 - Pasco"
    },
    "92": {
      "lat": -34.6316444,
      "lon": -58.4053386,
      "station_count": 1,
      "station_name": "092 - Salcedo"
    },
    "93": {
      "lat": -34.620798,
      "lon": -58.3944635,
      "station_count": 1,
      "station_name": "093 - CARLOS CALVO"
    },
    "94": {
      "lat": -34.591511,
      "lon": -58.449652,
      "station_count": 1,
      "station_name": "094 - G\u00daZMAN"
    },
    "95": {
      "lat": -34.6021121,
      "lon": -58.3781678,
      "station_count": 1,
      "station_name": "095 - ESMERALDA"
    },
    "96": {
      "lat": -34.6027814,
      "lon": -58.4116586,
      "station_count": 1,
      "station_name": "096 - Carlos Gardel"
    },
    "98": {
      "lat": -34.6081643,
      "lon": -58.3779002,
      "station_count": 1,
      "station_name": "037- Claudia P\u00eda Braudracco"
    },
    "99": {
      "lat": -34.5960961,
      "lon": -58.435408,
      "station_count": 1,
      "station_name": "099 - Malabia"
    },
    "101": {
      "lat": -34.5891857,
      "lon": -58.4424397,
      "station_count": 1,
      "station_name": "101 - Fitz Roy"
    },
    "102": {
      "lat": -34.5851209,
      "lon": -58.4492989,
      "station_count": 1,
      "station_name": "102 - ROSETI"
    },
    "104": {
      "lat": -34.587617,
      "lon": -58.455212,
      "station_count": 1,
      "station_name": "104 - Federico Lacroze"
    },
    "105": {
      "lat": -34.6340844,
      "lon": -58.4008662,
      "station_count": 1,
      "station_name": "105 - 15 DE NOVIEMBRE"
    },
    "107": {
      "lat": -34.63037718,
      "lon": -58.395844,
      "station_count": 1,
      "station_name": "107 - HOSPITAL GARRAHAN"
    },
    "111": {
      "lat": -34.6054877,
      "lon": -58.3646858,
      "station_count": 1,
      "station_name": "111 - MACACHA GUEMES"
    },
    "112": {
      "lat": -34.612075,
      "lon": -58.380384,
      "station_count": 1,
      "station_name": "112 - 9 de Julio"
    },
    "114": {
      "lat": -34.5949745,
      "lon": -58.3722554,
      "station_count": 1,
      "station_name": "114 - DELLA PAOLERA"
    },
    "116": {
      "lat": -34.5921708,
      "lon": -58.4025894,
      "station_count": 1,
      "station_name": "116 - HOSPITAL ALEM\u00c1N"
    },
    "117": {
      "lat": -34.6201008,
      "lon": -58.3741759,
      "station_count": 1,
      "station_name": "117 - HUMBERTO 1\u00b0"
    },
    "118": {
      "lat": -34.6170196,
      "lon": -58.4026531,
      "station_count": 1,
      "station_name": "118 - MEXICO"
    },
    "120": {
      "lat": -34.617509,
      "lon": -58.4092876,
      "station_count": 1,
      "station_name": "120 - HOSPITAL RAMOS MEJIA"
    },
    "121": {
      "lat": -34.6011732,
      "lon": -58.4285093,
      "station_count": 1,
      "station_name": "121 - YATAY"
    },
    "122": {
      "lat": -34.5915614,
      "lon": -58.4198163,
      "station_count": 1,
      "station_name": "122 - COSTA RICA"
    },
    "124": {
      "lat": -34.580538,
      "lon": -58.411965,
      "station_count": 1,
      "station_name": "124 - UGARTECHE"
    },
    "126": {
      "lat": -34.6402672,
      "lon": -58.3692243,
      "station_count": 1,
      "station_name": "126 - Ministerio de Justicia y Seguridad"
    },
    "128": {
      "lat": -34.60515159,
      "lon": -58.36882117,
      "station_count": 1,
      "station_name": "128 - PARQUE DEL BAJO"
    },
    "130": {
      "lat": -34.5917376,
      "lon": -58.37436403,
      "station_count": 1,
      "station_name": "130 - RETIRO II"
    },
    "131": {
      "lat": -34.5984043,
      "lon": -58.3990158,
      "station_count": 1,
      "station_name": "131- HOSPITAL DE CL\u00cdNICAS"
    },
    "132": {
      "lat": -34.6033685,
      "lon": -58.372763,
      "station_count": 1,
      "station_name": "132 - CORRIENTES"
    },
    "134": {
      "lat": -34.683188,
      "lon": -58.468952,
      "station_count": 1,
      "station_name": "134 - SOLDADO DE LA FRONTERA"
    },
    "135": {
      "lat": -34.595125,
      "lon": -58.377535,
      "station_count": 1,
      "station_name": "135 - MARCELO T. DE ALVEAR"
    },
    "137": {
      "lat": -34.6155977,
      "lon": -58.3674923,
      "station_count": 1,
      "station_name": "137 - AZOPARDO Y CHILE"
    },
    "138": {
      "lat": -34.6353595,
      "lon": -58.3876724,
      "station_count": 1,
      "station_name": "138 - Hospital Britanico"
    },
    "144": {
      "lat": -34.6018744,
      "lon": -58.4060944,
      "station_count": 1,
      "station_name": "144 - PUEYRRED\u00d3N"
    },
    "146": {
      "lat": -34.6221118,
      "lon": -58.4078419,
      "station_count": 1,
      "station_name": "146 - Hospital Franc\u00e9s"
    },
    "148": {
      "lat": -34.645137,
      "lon": -58.484507,
      "station_count": 1,
      "station_name": "323 - Parque Avellaneda II"
    },
    "149": {
      "lat": -34.6153266,
      "lon": -58.3813642,
      "station_count": 1,
      "station_name": "149 - LIMA"
    },
    "150": {
      "lat": -34.6187547,
      "lon": -58.3554654,
      "station_count": 1,
      "station_name": "150 - RODRIGO BUENO"
    },
    "151": {
      "lat": -34.6118145,
      "lon": -58.361285,
      "station_count": 1,
      "station_name": "151 - AIME PAIN\u00c9"
    },
    "152": {
      "lat": -34.6181645,
      "lon": -58.3596311,
      "station_count": 1,
      "station_name": "152 - JULIETA LANTERI"
    },
    "153": {
      "lat": -34.6307765,
      "lon": -58.3620701,
      "station_count": 1,
      "station_name": "153 - JUAN MANUEL DE BLANES"
    },
    "155": {
      "lat": -34.6380383,
      "lon": -58.4114346,
      "station_count": 1,
      "station_name": "155 - Parque Jos\u00e9 Evaristo Uriburu"
    },
    "156": {
      "lat": -34.5775895,
      "lon": -58.4074696,
      "station_count": 1,
      "station_name": "156 - Plaza Alemania"
    },
    "158": {
      "lat": -34.592735,
      "lon": -58.4450697,
      "station_count": 1,
      "station_name": "158 - VILLARROEL"
    },
    "161": {
      "lat": -34.6020779,
      "lon": -58.4196761,
      "station_count": 1,
      "station_name": "161 - Humahuaca"
    },
    "162": {
      "lat": -34.608985,
      "lon": -58.401924,
      "station_count": 1,
      "station_name": "162 - LARREA Y BARTOLOM\u00c9 MITRE"
    },
    "163": {
      "lat": -34.6095663,
      "lon": -58.4064308,
      "station_count": 1,
      "station_name": "163 - ONCE II"
    },
    "164": {
      "lat": -34.617301,
      "lon": -58.3698984,
      "station_count": 1,
      "station_name": "164 - FACULTAD DE INGENIERIA"
    },
    "165": {
      "lat": -34.597048,
      "lon": -58.407614,
      "station_count": 1,
      "station_name": "165 - PLAZA MONSE\u00d1OR MIGUEL DE ANDREA"
    },
    "166": {
      "lat": -34.5883466632398,
      "lon": -58.3941479428656,
      "station_count": 1,
      "station_name": "166 - Cementerio de Recoleta"
    },
    "167": {
      "lat": -34.606984,
      "lon": -58.44854,
      "station_count": 1,
      "station_name": "275 - PLAZA 24 DE SEPTIEMBRE"
    },
    "168": {
      "lat": -34.6186217,
      "lon": -58.3812271,
      "station_count": 1,
      "station_name": "168 - Estados Unidos"
    },
    "169": {
      "lat": -34.6123459,
      "lon": -58.411856,
      "station_count": 1,
      "station_name": "169 - FACULTAD DE PSICOLOGIA"
    },
    "171": {
      "lat": -34.6032813,
      "lon": -58.3997553,
      "station_count": 1,
      "station_name": "171 - Pasteur"
    },
    "172": {
      "lat": -34.625426,
      "lon": -58.371082,
      "station_count": 1,
      "station_name": "172 - BRASIL"
    },
    "174": {
      "lat": -34.597225,
      "lon": -58.391768,
      "station_count": 1,
      "station_name": "174 - MINISTERIO DE EDUCACION"
    },
    "175": {
      "lat": -34.626851,
      "lon": -58.380707,
      "station_count": 1,
      "station_name": "147 - Constituci\u00f3n"
    },
    "176": {
      "lat": -34.555254,
      "lon": -58.494845,
      "station_count": 1,
      "station_name": "067 - PARQUE SARMIENTO I"
    },
    "177": {
      "lat": -34.568165,
      "lon": -58.412121,
      "station_count": 1,
      "station_name": "177 -PLANETARIO"
    },
    "179": {
      "lat": -34.6384786,
      "lon": -58.3642885,
      "station_count": 1,
      "station_name": "179 - CASA SAN"
    },
    "181": {
      "lat": -34.5926649,
      "lon": -58.4120072,
      "station_count": 1,
      "station_name": "181 - BILLINGHURST Y MANSILLA"
    },
    "182": {
      "lat": -34.5780479,
      "lon": -58.4352466,
      "station_count": 1,
      "station_name": "182 - RAVIGNANI Y GUATEMALA"
    },
    "183": {
      "lat": -34.6156994,
      "lon": -58.3899728,
      "station_count": 1,
      "station_name": "183 - VIRREY CEVALLOS"
    },
    "184": {
      "lat": -34.6306129,
      "lon": -58.3913419,
      "station_count": 1,
      "station_name": "184 - Pedro Echague"
    },
    "186": {
      "lat": -34.6136356,
      "lon": -58.4064415,
      "station_count": 1,
      "station_name": "186 - MANZANA 66"
    },
    "187": {
      "lat": -34.552571,
      "lon": -58.450897,
      "station_count": 1,
      "station_name": "261 - QUINTEROS LIDORO"
    },
    "188": {
      "lat": -34.62393,
      "lon": -58.39125,
      "station_count": 1,
      "station_name": "373 - Jorgelina De Simone"
    },
    "189": {
      "lat": -34.5886889,
      "lon": -58.3852113,
      "station_count": 1,
      "station_name": "189 - POSADAS"
    },
    "190": {
      "lat": -34.5850763,
      "lon": -58.4111136,
      "station_count": 1,
      "station_name": "190 - JUNCAL"
    },
    "191": {
      "lat": -34.6079305,
      "lon": -58.3808358,
      "station_count": 1,
      "station_name": "191 - Rivadavia y 9 de Julio"
    },
    "193": {
      "lat": -34.5908626,
      "lon": -58.4061652,
      "station_count": 1,
      "station_name": "193 - ARENALES Y AGUERO"
    },
    "194": {
      "lat": -34.6060758,
      "lon": -58.4224635,
      "station_count": 1,
      "station_name": "194 - PER\u00d3N Y ACU\u00d1A DE FIGUEROA"
    },
    "196": {
      "lat": -34.6275351,
      "lon": -58.3657211,
      "station_count": 1,
      "station_name": "196 - HOSPITAL ARGERICH"
    },
    "197": {
      "lat": -34.620998,
      "lon": -58.493044,
      "station_count": 1,
      "station_name": "197 - PLAZA CIUDAD DE UDINE"
    },
    "199": {
      "lat": -34.6222601,
      "lon": -58.4160137,
      "station_count": 1,
      "station_name": "199 - ESTADOS UNIDOS Y BOEDO"
    },
    "200": {
      "lat": -34.5890696,
      "lon": -58.4053617,
      "station_count": 1,
      "station_name": "200 - AUSTRIA Y FRENCH"
    },
    "202": {
      "lat": -34.583749,
      "lon": -58.390602,
      "station_count": 1,
      "station_name": "001 - FACULTAD DE DERECHO"
    },
    "203": {
      "lat": -34.628757,
      "lon": -58.356259,
      "station_count": 1,
      "station_name": "108 - Usina del Arte"
    },
    "204": {
      "lat": -34.614948,
      "lon": -58.427818,
      "station_count": 1,
      "station_name": "167 - Hip\u00f3lito Yrigoyen"
    },
    "205": {
      "lat": -34.583323,
      "lon": -58.428016,
      "station_count": 1,
      "station_name": "125 - F.J.Santamaria de Oro"
    },
    "206": {
      "lat": -34.58495,
      "lon": -58.437339,
      "station_count": 1,
      "station_name": "159 - Fitz Roy & Gorriti"
    },
    "207": {
      "lat": -34.6523768530285,
      "lon": -58.4873593569069,
      "station_count": 1,
      "station_name": "123 - BASUALDO Y RODO"
    },
    "208": {
      "lat": -34.5807161,
      "lon": -58.438404,
      "station_count": 1,
      "station_name": "145 - RAVIGNANI"
    },
    "210": {
      "lat": -34.572165,
      "lon": -58.411278,
      "station_count": 1,
      "station_name": "335 - General Urquiza"
    },
    "212": {
      "lat": -34.600275,
      "lon": -58.434875,
      "station_count": 1,
      "station_name": "129 - Velasco"
    },
    "213": {
      "lat": -34.599659,
      "lon": -58.442685,
      "station_count": 1,
      "station_name": "136 - Acevedo"
    },
    "214": {
      "lat": -34.590541,
      "lon": -58.428974,
      "station_count": 1,
      "station_name": "142 - Armenia y Gorriti"
    },
    "215": {
      "lat": -34.585878,
      "lon": -58.424996,
      "station_count": 1,
      "station_name": "113 - Guatemala"
    },
    "216": {
      "lat": -34.589968,
      "lon": -58.411493,
      "station_count": 1,
      "station_name": "059 - Coronel Diaz"
    },
    "219": {
      "lat": -34.6360274,
      "lon": -58.4156332,
      "station_count": 1,
      "station_name": "140 - Las Casas"
    },
    "220": {
      "lat": -34.635128,
      "lon": -58.427573,
      "station_count": 1,
      "station_name": "097 - Avelino Diaz"
    },
    "222": {
      "lat": -34.572583,
      "lon": -58.420628,
      "station_count": 1,
      "station_name": "160 - Godoy Cruz y Libertador"
    },
    "223": {
      "lat": -34.6234,
      "lon": -58.424853,
      "station_count": 1,
      "station_name": "178 - Jos\u00e9 Marmol"
    },
    "227": {
      "lat": -34.61036075,
      "lon": -58.43276297,
      "station_count": 1,
      "station_name": "188 - Aranguren"
    },
    "228": {
      "lat": -34.6164879,
      "lon": -58.3656683,
      "station_count": 1,
      "station_name": "010 - Madero UCA"
    },
    "229": {
      "lat": -34.581576,
      "lon": -58.45153,
      "station_count": 1,
      "station_name": "243 - PLAZOLETA CELEDONIO FLORES"
    },
    "230": {
      "lat": -34.5678255,
      "lon": -58.4645037,
      "station_count": 1,
      "station_name": "259 - PLAZA CASTELLI"
    },
    "231": {
      "lat": -34.60511787,
      "lon": -58.445999589,
      "station_count": 1,
      "station_name": "384 - PLAZA BENITO NAZAR"
    },
    "232": {
      "lat": -34.5599779,
      "lon": -58.4790578,
      "station_count": 1,
      "station_name": "252 - Tamborini"
    },
    "234": {
      "lat": -34.5480059,
      "lon": -58.4469439,
      "station_count": 1,
      "station_name": "344 - UNIVERSIDAD DI TELLA"
    },
    "235": {
      "lat": -34.573734,
      "lon": -58.48692409,
      "station_count": 1,
      "station_name": "281 - Villa Urquiza"
    },
    "236": {
      "lat": -34.562161,
      "lon": -58.455166,
      "station_count": 1,
      "station_name": "254 - Plaza Rafael Hernandez"
    },
    "237": {
      "lat": -34.6367093591787,
      "lon": -58.5013552581029,
      "station_count": 1,
      "station_name": "302 - ESTACION VILLA LURO"
    },
    "239": {
      "lat": -34.56533652,
      "lon": -58.42062076,
      "station_count": 1,
      "station_name": "391 - Plaza Rep\u00fablica de Ecuador"
    },
    "241": {
      "lat": -34.600874,
      "lon": -58.494123,
      "station_count": 1,
      "station_name": "348 - Villa del Parque"
    },
    "242": {
      "lat": -34.57716,
      "lon": -58.403214,
      "station_count": 1,
      "station_name": "103 - MALBA"
    },
    "245": {
      "lat": -34.552594,
      "lon": -58.4429397,
      "station_count": 1,
      "station_name": "248 - Husares"
    },
    "247": {
      "lat": -34.5838957,
      "lon": -58.466494,
      "station_count": 1,
      "station_name": "282 - Tronador"
    },
    "248": {
      "lat": -34.573522,
      "lon": -58.474635,
      "station_count": 1,
      "station_name": "346 - Plaza Zapiola"
    },
    "249": {
      "lat": -34.6506468,
      "lon": -58.3872342,
      "station_count": 1,
      "station_name": "307 - LEONARDO PEREYRA"
    },
    "251": {
      "lat": -34.6448579766856,
      "lon": -58.4097486603218,
      "station_count": 1,
      "station_name": "388 - Plaza Jose C Paz"
    },
    "252": {
      "lat": -34.647121,
      "lon": -58.374336,
      "station_count": 1,
      "station_name": "331 - CALIFORNIA"
    },
    "253": {
      "lat": -34.6163544,
      "lon": -58.4170737,
      "station_count": 1,
      "station_name": "383 - BOEDO Y VENEZUELA"
    },
    "254": {
      "lat": -34.620717,
      "lon": -58.441607,
      "station_count": 1,
      "station_name": "276 - PRIMERA JUNTA"
    },
    "255": {
      "lat": -34.622092,
      "lon": -58.448547,
      "station_count": 1,
      "station_name": "374 - Puan"
    },
    "257": {
      "lat": -34.570825,
      "lon": -58.481236,
      "station_count": 1,
      "station_name": "264 - Plaza Marcos Sastre"
    },
    "258": {
      "lat": -34.565521,
      "lon": -58.455334,
      "station_count": 1,
      "station_name": "336 - La Pampa"
    },
    "259": {
      "lat": -34.5591522,
      "lon": -58.4441762,
      "station_count": 1,
      "station_name": "290 - Club Excursionistas"
    },
    "260": {
      "lat": -34.5530794109,
      "lon": -58.43522348866,
      "station_count": 1,
      "station_name": "371 - Paseo de las Americas"
    },
    "261": {
      "lat": -34.616151,
      "lon": -58.440584,
      "station_count": 1,
      "station_name": "272 - Plaza Bruno Giordano"
    },
    "262": {
      "lat": -34.609761,
      "lon": -58.467476,
      "station_count": 1,
      "station_name": "349 - Plaza Saenz Pe\u00f1a"
    },
    "263": {
      "lat": -34.622003,
      "lon": -58.457555,
      "station_count": 1,
      "station_name": "270 - PLAZA DEL ANGEL GRIS"
    },
    "264": {
      "lat": -34.5559308,
      "lon": -58.4812325,
      "station_count": 1,
      "station_name": "283 - CNEL. JUAN CRUZ CZETZ"
    },
    "265": {
      "lat": -34.64196,
      "lon": -58.4505,
      "station_count": 1,
      "station_name": "361 - Plaza Don Segundo Sombra"
    },
    "267": {
      "lat": -34.5976121,
      "lon": -58.4985424,
      "station_count": 1,
      "station_name": "315 - BEIRO Y SAN MART\u00cdN"
    },
    "268": {
      "lat": -34.5503,
      "lon": -58.477,
      "station_count": 1,
      "station_name": "399 - GARCIA DEL RIO"
    },
    "269": {
      "lat": -34.577329,
      "lon": -58.457799,
      "station_count": 1,
      "station_name": "260 - SAN MIGUEL DE GARICOITS"
    },
    "270": {
      "lat": -34.640114,
      "lon": -58.43026,
      "station_count": 1,
      "station_name": "370 - Beauchef"
    },
    "271": {
      "lat": -34.630108,
      "lon": -58.473844,
      "station_count": 1,
      "station_name": "365 - Venancio Flores"
    },
    "273": {
      "lat": -34.616758,
      "lon": -58.446751,
      "station_count": 1,
      "station_name": "223 - GAINZA"
    },
    "274": {
      "lat": -34.5563511,
      "lon": -58.4630428,
      "station_count": 1,
      "station_name": "369 - Ciudad De La Paz"
    },
    "275": {
      "lat": -34.562277,
      "lon": -58.459289,
      "station_count": 1,
      "station_name": "256 - PLAZA NORUEGA"
    },
    "277": {
      "lat": -34.563539,
      "lon": -58.436115,
      "station_count": 1,
      "station_name": "292 - PLAZA BOLIVIA"
    },
    "278": {
      "lat": -34.564122,
      "lon": -58.469813,
      "station_count": 1,
      "station_name": "233 - MONROE"
    },
    "280": {
      "lat": -34.633528,
      "lon": -58.449379,
      "station_count": 1,
      "station_name": "222 - SIMON BOLIVAR"
    },
    "281": {
      "lat": -34.613778,
      "lon": -58.458315,
      "station_count": 1,
      "station_name": "350 - Plaza Irlanda"
    },
    "284": {
      "lat": -34.631018,
      "lon": -58.435056,
      "station_count": 1,
      "station_name": "229 - RIGLOS"
    },
    "285": {
      "lat": -34.6172122,
      "lon": -58.3561752,
      "station_count": 1,
      "station_name": "400 - Reserva Ecologica"
    },
    "289": {
      "lat": -34.559801,
      "lon": -58.448314,
      "station_count": 1,
      "station_name": "255 - BARRANCAS DE BELGRANO"
    },
    "291": {
      "lat": -34.617247,
      "lon": -58.381627,
      "station_count": 1,
      "station_name": "244 - UADE"
    },
    "294": {
      "lat": -34.5471313,
      "lon": -58.4524657,
      "station_count": 1,
      "station_name": "363 - Udaondo"
    },
    "299": {
      "lat": -34.631705,
      "lon": -58.466143,
      "station_count": 1,
      "station_name": "221 - CULPINA"
    },
    "301": {
      "lat": -34.6603616577602,
      "lon": -58.4676386893849,
      "station_count": 1,
      "station_name": "309 - UTN II"
    },
    "302": {
      "lat": -34.6518464,
      "lon": -58.415771,
      "station_count": 1,
      "station_name": "340 - PLAZA NUEVA POMPEYA"
    },
    "304": {
      "lat": -34.5893,
      "lon": -58.4848,
      "station_count": 1,
      "station_name": "395 - Agronomia II"
    },
    "307": {
      "lat": -34.6499971,
      "lon": -58.424773,
      "station_count": 1,
      "station_name": "341 - COMUNA 4"
    },
    "308": {
      "lat": -34.567633,
      "lon": -58.436752,
      "station_count": 1,
      "station_name": "251 - Solar de la Abad\u00eda"
    },
    "309": {
      "lat": -34.6214120712867,
      "lon": -58.5197809873066,
      "station_count": 1,
      "station_name": "298 - PLAZA DR. JUAN B. TERAN"
    },
    "310": {
      "lat": -34.6771180227207,
      "lon": -58.4756244382189,
      "station_count": 1,
      "station_name": "356 - ESTACI\u00d3N LUGANO"
    },
    "311": {
      "lat": -34.5972098,
      "lon": -58.47421143,
      "station_count": 1,
      "station_name": "213 - Hospital Alvear"
    },
    "316": {
      "lat": -34.605567,
      "lon": -58.453475,
      "station_count": 1,
      "station_name": "205 - SAN MARTIN"
    },
    "318": {
      "lat": -34.603936,
      "lon": -58.457317,
      "station_count": 1,
      "station_name": "285 - ESPINOSA"
    },
    "322": {
      "lat": -34.551304,
      "lon": -58.454181,
      "station_count": 1,
      "station_name": "289 - MONTA\u00d1ESES"
    },
    "323": {
      "lat": -34.565409,
      "lon": -58.459298,
      "station_count": 1,
      "station_name": "240 - ECHEVERRIA"
    },
    "324": {
      "lat": -34.578933,
      "lon": -58.4840556,
      "station_count": 1,
      "station_name": "280 - JURAMENTO"
    },
    "327": {
      "lat": -34.6771305156622,
      "lon": -58.4542860540014,
      "station_count": 1,
      "station_name": "366 - VILLA OL\u00cdMPICA"
    },
    "329": {
      "lat": -34.593141,
      "lon": -58.435187,
      "station_count": 1,
      "station_name": "100 - Plaza Gurruchaga"
    },
    "330": {
      "lat": -34.6008306,
      "lon": -58.4721271,
      "station_count": 1,
      "station_name": "148 -La Paternal"
    },
    "333": {
      "lat": -34.6008,
      "lon": -58.50335,
      "station_count": 1,
      "station_name": "203 - Beiro"
    },
    "335": {
      "lat": -34.615945,
      "lon": -58.47098,
      "station_count": 1,
      "station_name": "206 - Galicia"
    },
    "336": {
      "lat": -34.5997308,
      "lon": -58.5111458,
      "station_count": 1,
      "station_name": "207 - PLAZA ARENALES"
    },
    "340": {
      "lat": -34.54754,
      "lon": -58.467844,
      "station_count": 1,
      "station_name": "359 - PLAZA BALCARCE"
    },
    "342": {
      "lat": -34.616813,
      "lon": -58.484297,
      "station_count": 1,
      "station_name": "218 - Campana"
    },
    "343": {
      "lat": -34.6357272,
      "lon": -58.4411639,
      "station_count": 1,
      "station_name": "219 - Parque Chacabuco 2 / off line"
    },
    "348": {
      "lat": -34.610482,
      "lon": -58.474369,
      "station_count": 1,
      "station_name": "231 - Margari\u00f1os Cervantes"
    },
    "349": {
      "lat": -34.5703869,
      "lon": -58.4663122,
      "station_count": 1,
      "station_name": "232 - Sucre y Martinez"
    },
    "353": {
      "lat": -34.599036,
      "lon": -58.364695,
      "station_count": 1,
      "station_name": "237 - Madero Office"
    },
    "355": {
      "lat": -34.567483,
      "lon": -58.446381,
      "station_count": 1,
      "station_name": "242 - Plazoleta Rafael del Riego"
    },
    "358": {
      "lat": -34.561486,
      "lon": -58.465586,
      "station_count": 1,
      "station_name": "249 - Balb\u00edn"
    },
    "359": {
      "lat": -34.555602,
      "lon": -58.450479,
      "station_count": 1,
      "station_name": "250 - Fleni"
    },
    "361": {
      "lat": -34.569187,
      "lon": -58.453608,
      "station_count": 1,
      "station_name": "258 - Plaza J.J. Paso"
    },
    "362": {
      "lat": -34.5658514,
      "lon": -58.479847,
      "station_count": 1,
      "station_name": "262 - Holmberg"
    },
    "363": {
      "lat": -34.6439,
      "lon": -58.463114,
      "station_count": 1,
      "station_name": "354 - Jos\u00e9 Mart\u00ed"
    },
    "364": {
      "lat": -34.568693,
      "lon": -58.43447,
      "station_count": 1,
      "station_name": "381 - Matienzo Y Arce"
    },
    "366": {
      "lat": -34.6352784,
      "lon": -58.4825327,
      "station_count": 1,
      "station_name": "360 - Plaza Ramon Falcon"
    },
    "367": {
      "lat": -34.6162121414803,
      "lon": -58.4772094734465,
      "station_count": 1,
      "station_name": "287 - Belaustegui"
    },
    "368": {
      "lat": -34.59807,
      "lon": -58.482079,
      "station_count": 1,
      "station_name": "378 - AGRONOMIA"
    },
    "369": {
      "lat": -34.592244,
      "lon": -58.491797,
      "station_count": 1,
      "station_name": "304 - Navarro"
    },
    "370": {
      "lat": -34.590964,
      "lon": -58.500336,
      "station_count": 1,
      "station_name": "305 - Plaza Martin Rodriguez"
    },
    "371": {
      "lat": -34.6317,
      "lon": -58.45534,
      "station_count": 1,
      "station_name": "269 - Plaza De La Misericordia"
    },
    "372": {
      "lat": -34.636406,
      "lon": -58.470136,
      "station_count": 1,
      "station_name": "322 - MART\u00cd Y DIRECTORIO"
    },
    "373": {
      "lat": -34.5823369182868,
      "lon": -58.4810831468321,
      "station_count": 1,
      "station_name": "265 - Plaza Exodo Juje\u00f1o"
    },
    "374": {
      "lat": -34.6471,
      "lon": -58.4698,
      "station_count": 1,
      "station_name": "367 - Eva Per\u00f3n"
    },
    "375": {
      "lat": -34.6045973566929,
      "lon": -58.4848121161432,
      "station_count": 1,
      "station_name": "301 - Arregui Y Terrada"
    },
    "376": {
      "lat": -34.626778,
      "lon": -58.487078,
      "station_count": 1,
      "station_name": "324 - Las Victorias"
    },
    "378": {
      "lat": -34.623123,
      "lon": -58.468287,
      "station_count": 1,
      "station_name": "215 - HOSPITAL ALVAREZ"
    },
    "379": {
      "lat": -34.5602,
      "lon": -58.4281,
      "station_count": 1,
      "station_name": "390 - De Los Ombues"
    },
    "381": {
      "lat": -34.6162466,
      "lon": -58.4658836,
      "station_count": 1,
      "station_name": "274 - Gavil\u00e1n"
    },
    "382": {
      "lat": -34.60547,
      "lon": -58.47739,
      "station_count": 1,
      "station_name": "204 - Biarritz"
    },
    "383": {
      "lat": -34.5717986,
      "lon": -58.4895409,
      "station_count": 1,
      "station_name": "263 - Plaza Echeverria"
    },
    "384": {
      "lat": -34.5795188115686,
      "lon": -58.4618347314881,
      "station_count": 1,
      "station_name": "267 - Plaza 25 De Agosto"
    },
    "385": {
      "lat": -34.6061599147537,
      "lon": -58.4931413452077,
      "station_count": 1,
      "station_name": "268 - Plaza Arist\u00f3bulo Del Valle"
    },
    "386": {
      "lat": -34.5654,
      "lon": -58.4759,
      "station_count": 1,
      "station_name": "277 - Coghlan"
    },
    "387": {
      "lat": -34.602028,
      "lon": -58.465568,
      "station_count": 1,
      "station_name": "278 - Donato Alvarez"
    },
    "392": {
      "lat": -34.554581,
      "lon": -58.485381,
      "station_count": 1,
      "station_name": "297 - TRONADOR Y GARC\u00cdA DEL R\u00cdO"
    },
    "393": {
      "lat": -34.5902732694463,
      "lon": -58.4669322018588,
      "station_count": 1,
      "station_name": "300 - Jose Artigas"
    },
    "395": {
      "lat": -34.5968492889416,
      "lon": -58.4532798579487,
      "station_count": 1,
      "station_name": "303 - Huaura"
    },
    "397": {
      "lat": -34.5979984,
      "lon": -58.4856262,
      "station_count": 1,
      "station_name": "308 - Artigas Y Melincue"
    },
    "400": {
      "lat": -34.57899,
      "lon": -58.46982,
      "station_count": 1,
      "station_name": "313 - De Los Incas"
    },
    "403": {
      "lat": -34.645523264,
      "lon": -58.39666367,
      "station_count": 1,
      "station_name": "316 - Buenos Aires"
    },
    "407": {
      "lat": -34.6424248,
      "lon": -58.478266,
      "station_count": 1,
      "station_name": "330 - Parque Avellaneda"
    },
    "408": {
      "lat": -34.56912,
      "lon": -58.50025,
      "station_count": 1,
      "station_name": "364 - CERRETTI Y MANUELA PEDRAZA"
    },
    "412": {
      "lat": -34.6732713,
      "lon": -58.4553734,
      "station_count": 1,
      "station_name": "372 - VILLA SOLDATI"
    },
    "413": {
      "lat": -34.6614271,
      "lon": -58.5015315,
      "station_count": 1,
      "station_name": "382 - MERCADO DE HACIENDA MATADEROS"
    },
    "414": {
      "lat": -34.607731,
      "lon": -58.4383041,
      "station_count": 1,
      "station_name": "385 - Franklin"
    },
    "416": {
      "lat": -34.553262,
      "lon": -58.469133,
      "station_count": 1,
      "station_name": "257 - Plaza Francisco Ramirez"
    },
    "417": {
      "lat": -34.57634,
      "lon": -58.50248,
      "station_count": 1,
      "station_name": "127 - PLAZA LEONARDO N. ALEM"
    },
    "418": {
      "lat": -34.5809383,
      "lon": -58.4445804,
      "station_count": 1,
      "station_name": "345 - Plaza Mafalda"
    },
    "419": {
      "lat": -34.5476039,
      "lon": -58.4565662,
      "station_count": 1,
      "station_name": "359 PB"
    },
    "420": {
      "lat": -34.5446,
      "lon": -58.4396,
      "station_count": 1,
      "station_name": "375 - Ciudad Universitaria I"
    },
    "422": {
      "lat": -34.56454,
      "lon": -58.50289,
      "station_count": 1,
      "station_name": "379 - PARQUE SARMIENTO II"
    },
    "423": {
      "lat": -34.559255,
      "lon": -58.487772,
      "station_count": 1,
      "station_name": "043 - PLAZA ALBERDI"
    },
    "424": {
      "lat": -34.638584,
      "lon": -58.39965,
      "station_count": 1,
      "station_name": "387 - Luna"
    },
    "425": {
      "lat": -34.6440763,
      "lon": -58.422091,
      "station_count": 1,
      "station_name": "394 - Av. La Plata"
    },
    "426": {
      "lat": -34.5557,
      "lon": -58.4579,
      "station_count": 1,
      "station_name": "396 - PLAZA ALBERTI"
    },
    "427": {
      "lat": -34.648402,
      "lon": -58.5136448,
      "station_count": 1,
      "station_name": "397 - PARQUE SANTOJANNI"
    },
    "428": {
      "lat": -34.587458,
      "lon": -58.4739506,
      "station_count": 1,
      "station_name": "225 - HOSPITAL TORNU"
    },
    "429": {
      "lat": -34.6389740733185,
      "lon": -58.510102417994,
      "station_count": 1,
      "station_name": "201 - PLAZA EJERCITO DE LOS ANDES"
    },
    "431": {
      "lat": -34.542628,
      "lon": -58.436913,
      "station_count": 1,
      "station_name": "362 - PARQUE DE LA MEMORIA"
    },
    "432": {
      "lat": -34.619879,
      "lon": -58.435801,
      "station_count": 1,
      "station_name": "187 - Jose Maria Moreno"
    },
    "433": {
      "lat": -34.637697,
      "lon": -58.373726,
      "station_count": 1,
      "station_name": "273 - Plazoleta Colombia"
    },
    "434": {
      "lat": -34.54569,
      "lon": -58.46514,
      "station_count": 1,
      "station_name": "247 - PLAZA LUCIO DEMARE"
    },
    "435": {
      "lat": -34.544503,
      "lon": -58.459499,
      "station_count": 1,
      "station_name": "227 -Club Ciudad de Buenos Aires"
    },
    "436": {
      "lat": -34.57653,
      "lon": -58.44349,
      "station_count": 1,
      "station_name": "253 - Plaza Colegiales"
    },
    "440": {
      "lat": -34.5906475,
      "lon": -58.428899,
      "station_count": 1,
      "station_name": "142 - ARMENIA"
    },
    "441": {
      "lat": -34.609801,
      "lon": -58.3748,
      "station_count": 1,
      "station_name": "016 - Legislatura"
    },
    "444": {
      "lat": -34.608936,
      "lon": -58.370716,
      "station_count": 1,
      "station_name": "061 - Ministerio de Economia"
    },
    "448": {
      "lat": -34.5822681155566,
      "lon": -58.3790962140903,
      "station_count": 1,
      "station_name": "393 - Barrio 31"
    },
    "449": {
      "lat": -34.62883578,
      "lon": -58.463297377,
      "station_count": 1,
      "station_name": "352 - San Jose de Flores"
    },
    "453": {
      "lat": -34.6294802,
      "lon": -58.4944854,
      "station_count": 1,
      "station_name": "028 - Plaza de la Bandera"
    },
    "454": {
      "lat": -34.63403,
      "lon": -58.50694,
      "station_count": 1,
      "station_name": "176 - Plaza Derechos del hombre"
    },
    "455": {
      "lat": -34.62652,
      "lon": -58.50805,
      "station_count": 1,
      "station_name": "039 - Plaza Don Bosco"
    },
    "457": {
      "lat": -34.62805,
      "lon": -58.52174,
      "station_count": 1,
      "station_name": "110 - PLAZA CD DE BANFF"
    },
    "458": {
      "lat": -34.636275,
      "lon": -58.444041,
      "station_count": 1,
      "station_name": "219 - Parque Chacabuco II"
    },
    "459": {
      "lat": -34.61072,
      "lon": -58.51914,
      "station_count": 1,
      "station_name": "327 - PLAZA RICCHERI"
    },
    "460": {
      "lat": -34.6075,
      "lon": -58.51193,
      "station_count": 1,
      "station_name": "133 - BEIRO Y SEGUROLA"
    },
    "461": {
      "lat": -34.58088,
      "lon": -58.49363,
      "station_count": 1,
      "station_name": "106 - MOSCONI Y CONSTITUYENTES"
    },
    "462": {
      "lat": -34.6701713,
      "lon": -58.4956397,
      "station_count": 1,
      "station_name": "068 - MINISTERIO DE DESARROLLO HUMANO"
    },
    "464": {
      "lat": -34.541,
      "lon": -58.4441,
      "station_count": 1,
      "station_name": "377 - CIUDAD UNIVERSITARIA III"
    },
    "465": {
      "lat": -34.5904625,
      "lon": -58.5071166,
      "station_count": 1,
      "station_name": "192 - HOSPITAL SIRIO"
    },
    "466": {
      "lat": -34.608096,
      "lon": -58.4118397,
      "station_count": 1,
      "station_name": "333 - PARQUE DE LA ESTACI\u00d3N"
    },
    "467": {
      "lat": -34.6055135,
      "lon": -58.3958925,
      "station_count": 1,
      "station_name": "328 - SARMIENTO II"
    },
    "468": {
      "lat": -34.6042288,
      "lon": -58.3937375,
      "station_count": 1,
      "station_name": "084 - TEATRO PICADERO"
    },
    "469": {
      "lat": -34.5934185,
      "lon": -58.513837,
      "station_count": 1,
      "station_name": "062 - PARQUE ONEGA"
    },
    "471": {
      "lat": -34.5947293,
      "lon": -58.5033086,
      "station_count": 1,
      "station_name": "173 - EL LIBERTADOR"
    },
    "472": {
      "lat": -34.5751286,
      "lon": -58.4527561,
      "station_count": 1,
      "station_name": "310 - FREIRE II"
    },
    "473": {
      "lat": -34.6134032,
      "lon": -58.4933583,
      "station_count": 1,
      "station_name": "216 - EMILIO LAMARCA"
    },
    "474": {
      "lat": -34.6108915,
      "lon": -58.50302,
      "station_count": 1,
      "station_name": "224 - BAIGORRIA"
    },
    "475": {
      "lat": -34.6165412,
      "lon": -58.5260181,
      "station_count": 1,
      "station_name": "238 - PLAZA LAS TOSCANERAS"
    },
    "476": {
      "lat": -34.6182924,
      "lon": -58.4985253,
      "station_count": 1,
      "station_name": "279 - PLAZA MONTE CASTRO"
    },
    "477": {
      "lat": -34.6350046,
      "lon": -58.3950539,
      "station_count": 1,
      "station_name": "311 - SEC. DE INNOVACION Y TRANSFORMACI\u00d3N"
    },
    "478": {
      "lat": -34.572056,
      "lon": -58.4475236,
      "station_count": 1,
      "station_name": "015 - AMENABAR"
    },
    "479": {
      "lat": -34.6262877,
      "lon": -58.4553001,
      "station_count": 1,
      "station_name": "347 - CARABOBO"
    },
    "480": {
      "lat": -34.6293335,
      "lon": -58.4836028,
      "station_count": 1,
      "station_name": "353 - PLAZA V\u00c9LEZ SARSFIELD"
    },
    "481": {
      "lat": -34.6430378,
      "lon": -58.5127001,
      "station_count": 1,
      "station_name": "369 - PLAZA LARRAZABAL"
    },
    "482": {
      "lat": -34.550468,
      "lon": -58.430024,
      "station_count": 1,
      "station_name": "376 - PASEO DE LA COSTANERA"
    },
    "483": {
      "lat": -34.5436888,
      "lon": -58.4771259,
      "station_count": 1,
      "station_name": "175 - PLAZA MACKENNA"
    },
    "484": {
      "lat": -34.5554843,
      "lon": -58.4768041,
      "station_count": 1,
      "station_name": "295 - SUPER\u00cd"
    },
    "485": {
      "lat": -34.553465,
      "lon": -58.42144,
      "station_count": 1,
      "station_name": "230 - PASEO DE LA COSTANERA II"
    },
    "486": {
      "lat": -34.5420905,
      "lon": -58.4705699,
      "station_count": 1,
      "station_name": "220 - PLAZA FELIX LIMA"
    },
    "487": {
      "lat": -34.558137,
      "lon": -58.4672593,
      "station_count": 1,
      "station_name": "239 - AVENIDA CRAMER"
    },
    "488": {
      "lat": -34.5657087,
      "lon": -58.4952184,
      "station_count": 1,
      "station_name": "234 - AVENIDA TRIUNVIRATO"
    },
    "489": {
      "lat": -34.5476039,
      "lon": -58.4565662,
      "station_count": 1,
      "station_name": "288 - SECRETAR\u00cdA DE DEPORTES"
    },
    "490": {
      "lat": -34.56477054,
      "lon": -58.402021,
      "station_count": 1,
      "station_name": "245 - COSTANERA NORTE"
    },
    "491": {
      "lat": -34.6122963,
      "lon": -58.443295,
      "station_count": 1,
      "station_name": "266 - PLAZA SABATTINI"
    },
    "492": {
      "lat": -34.6097105,
      "lon": -58.4215633,
      "station_count": 1,
      "station_name": "325 - MEDRANO"
    },
    "493": {
      "lat": -34.5967435,
      "lon": -58.4594031,
      "station_count": 1,
      "station_name": "208 - NICASIO ORO\u00d1O"
    },
    "494": {
      "lat": -34.6147875,
      "lon": -58.5116722,
      "station_count": 1,
      "station_name": "314 - ALLENDE"
    },
    "496": {
      "lat": -34.5831596,
      "lon": -58.5131664,
      "station_count": 1,
      "station_name": "052 - CAMPANA II"
    },
    "497": {
      "lat": -34.5744245,
      "lon": -58.4962318,
      "station_count": 1,
      "station_name": "307 - CERRETTI"
    },
    "498": {
      "lat": -34.5865976,
      "lon": -58.4949585,
      "station_count": 1,
      "station_name": "055 - HABANA"
    }
  },
  "generation_timestamp": "2025-06-22T22:26:03.499225",
  "train_shape": [
    35563346,
    476
  ],
  "val_shape": [
    5873426,
    476
  ],
  "test_shape": [
    13855634,
    476
  ],
  "feature_columns": [
    "cluster_id",
    "ts_start",
    "dep_internal_count",
    "dep_internal_male",
    "dep_internal_female",
    "dep_internal_other",
    "dep_internal_young",
    "dep_internal_adult",
    "dep_internal_senior",
    "dep_internal_age_available",
    "dep_internal_model_iconic",
    "dep_internal_duration_mean",
    "dep_internal_duration_std",
    "dep_internal_temperature_2m_mean",
    "dep_internal_relative_humidity_2m_mean",
    "dep_internal_dew_point_2m_mean",
    "dep_internal_apparent_temperature_mean",
    "dep_internal_precipitation_mean",
    "dep_internal_weather_code_mean",
    "dep_internal_pressure_msl_mean",
    "dep_internal_cloud_cover_mean",
    "dep_internal_cloud_cover_low_mean",
    "dep_internal_cloud_cover_mid_mean",
    "dep_internal_cloud_cover_high_mean",
    "dep_internal_vapour_pressure_deficit_mean",
    "dep_internal_wind_speed_10m_mean",
    "dep_internal_wind_direction_10m_mean",
    "dep_internal_wind_gusts_10m_mean",
    "dep_internal_soil_temperature_0_to_7cm_mean",
    "dep_internal_soil_moisture_0_to_7cm_mean",
    "dep_internal_sunshine_duration_mean",
    "dep_internal_direct_radiation_mean",
    "dep_internal_temp_feel_diff_mean",
    "dep_internal_weather_comfort_mean",
    "dep_internal_is_day_count",
    "dep_internal_temp_comfortable_count",
    "dep_internal_temp_very_hot_count",
    "dep_internal_temp_cold_count",
    "dep_internal_is_raining_count",
    "dep_internal_heavy_rain_count",
    "dep_internal_light_rain_count",
    "dep_internal_strong_wind_count",
    "dep_internal_moderate_wind_count",
    "dep_internal_weather_matched_count",
    "dep_external_count",
    "dep_external_male",
    "dep_external_female",
    "dep_external_other",
    "dep_external_young",
    "dep_external_adult",
    "dep_external_senior",
    "dep_external_age_available",
    "dep_external_model_iconic",
    "dep_external_duration_mean",
    "dep_external_duration_std",
    "dep_external_temperature_2m_mean",
    "dep_external_relative_humidity_2m_mean",
    "dep_external_dew_point_2m_mean",
    "dep_external_apparent_temperature_mean",
    "dep_external_precipitation_mean",
    "dep_external_weather_code_mean",
    "dep_external_pressure_msl_mean",
    "dep_external_cloud_cover_mean",
    "dep_external_cloud_cover_low_mean",
    "dep_external_cloud_cover_mid_mean",
    "dep_external_cloud_cover_high_mean",
    "dep_external_vapour_pressure_deficit_mean",
    "dep_external_wind_speed_10m_mean",
    "dep_external_wind_direction_10m_mean",
    "dep_external_wind_gusts_10m_mean",
    "dep_external_soil_temperature_0_to_7cm_mean",
    "dep_external_soil_moisture_0_to_7cm_mean",
    "dep_external_sunshine_duration_mean",
    "dep_external_direct_radiation_mean",
    "dep_external_temp_feel_diff_mean",
    "dep_external_weather_comfort_mean",
    "dep_external_is_day_count",
    "dep_external_temp_comfortable_count",
    "dep_external_temp_very_hot_count",
    "dep_external_temp_cold_count",
    "dep_external_is_raining_count",
    "dep_external_heavy_rain_count",
    "dep_external_light_rain_count",
    "dep_external_strong_wind_count",
    "dep_external_moderate_wind_count",
    "dep_external_weather_matched_count",
    "has_dep_internal",
    "has_dep_external",
    "arr_internal_count",
    "arr_internal_male",
    "arr_internal_female",
    "arr_internal_other",
    "arr_internal_young",
    "arr_internal_adult",
    "arr_internal_senior",
    "arr_internal_age_available",
    "arr_internal_model_iconic",
    "arr_internal_temperature_2m_mean",
    "arr_internal_relative_humidity_2m_mean",
    "arr_internal_dew_point_2m_mean",
    "arr_internal_apparent_temperature_mean",
    "arr_internal_precipitation_mean",
    "arr_internal_weather_code_mean",
    "arr_internal_pressure_msl_mean",
    "arr_internal_cloud_cover_mean",
    "arr_internal_cloud_cover_low_mean",
    "arr_internal_cloud_cover_mid_mean",
    "arr_internal_cloud_cover_high_mean",
    "arr_internal_vapour_pressure_deficit_mean",
    "arr_internal_wind_speed_10m_mean",
    "arr_internal_wind_direction_10m_mean",
    "arr_internal_wind_gusts_10m_mean",
    "arr_internal_soil_temperature_0_to_7cm_mean",
    "arr_internal_soil_moisture_0_to_7cm_mean",
    "arr_internal_sunshine_duration_mean",
    "arr_internal_direct_radiation_mean",
    "arr_internal_temp_feel_diff_mean",
    "arr_internal_weather_comfort_mean",
    "arr_internal_is_day_count",
    "arr_internal_temp_comfortable_count",
    "arr_internal_temp_very_hot_count",
    "arr_internal_temp_cold_count",
    "arr_internal_is_raining_count",
    "arr_internal_heavy_rain_count",
    "arr_internal_light_rain_count",
    "arr_internal_strong_wind_count",
    "arr_internal_moderate_wind_count",
    "arr_internal_weather_matched_count",
    "arr_external_count",
    "arr_external_male",
    "arr_external_female",
    "arr_external_other",
    "arr_external_young",
    "arr_external_adult",
    "arr_external_senior",
    "arr_external_age_available",
    "arr_external_model_iconic",
    "arr_external_temperature_2m_mean",
    "arr_external_relative_humidity_2m_mean",
    "arr_external_dew_point_2m_mean",
    "arr_external_apparent_temperature_mean",
    "arr_external_precipitation_mean",
    "arr_external_weather_code_mean",
    "arr_external_pressure_msl_mean",
    "arr_external_cloud_cover_mean",
    "arr_external_cloud_cover_low_mean",
    "arr_external_cloud_cover_mid_mean",
    "arr_external_cloud_cover_high_mean",
    "arr_external_vapour_pressure_deficit_mean",
    "arr_external_wind_speed_10m_mean",
    "arr_external_wind_direction_10m_mean",
    "arr_external_wind_gusts_10m_mean",
    "arr_external_soil_temperature_0_to_7cm_mean",
    "arr_external_soil_moisture_0_to_7cm_mean",
    "arr_external_sunshine_duration_mean",
    "arr_external_direct_radiation_mean",
    "arr_external_temp_feel_diff_mean",
    "arr_external_weather_comfort_mean",
    "arr_external_is_day_count",
    "arr_external_temp_comfortable_count",
    "arr_external_temp_very_hot_count",
    "arr_external_temp_cold_count",
    "arr_external_is_raining_count",
    "arr_external_heavy_rain_count",
    "arr_external_light_rain_count",
    "arr_external_strong_wind_count",
    "arr_external_moderate_wind_count",
    "arr_external_weather_matched_count",
    "has_arr_internal",
    "has_arr_external",
    "cluster_centroid_lat",
    "cluster_centroid_lon",
    "cluster_station_count",
    "hour",
    "day_of_week",
    "month",
    "year",
    "hour_sin",
    "hour_cos",
    "dow_sin",
    "dow_cos",
    "month_sin",
    "month_cos",
    "is_weekend",
    "is_morning_rush",
    "is_evening_rush",
    "is_daytime",
    "is_summer",
    "is_winter",
    "temperature_2m_mean",
    "relative_humidity_2m_mean",
    "dew_point_2m_mean",
    "apparent_temperature_mean",
    "precipitation_mean",
    "weather_code_mean",
    "pressure_msl_mean",
    "cloud_cover_mean",
    "cloud_cover_low_mean",
    "cloud_cover_mid_mean",
    "cloud_cover_high_mean",
    "vapour_pressure_deficit_mean",
    "wind_speed_10m_mean",
    "wind_direction_10m_mean",
    "wind_gusts_10m_mean",
    "soil_temperature_0_to_7cm_mean",
    "soil_moisture_0_to_7cm_mean",
    "sunshine_duration_mean",
    "direct_radiation_mean",
    "temp_feel_diff_mean",
    "weather_comfort_mean",
    "is_day",
    "temp_comfortable",
    "temp_very_hot",
    "temp_cold",
    "is_raining",
    "heavy_rain",
    "light_rain",
    "strong_wind",
    "moderate_wind",
    "weather_matched",
    "weather_data_available",
    "dep_internal_count_lag_1",
    "dep_internal_count_lag_2",
    "dep_internal_count_lag_4",
    "dep_internal_count_lag_8",
    "dep_external_count_lag_1",
    "dep_external_count_lag_2",
    "dep_external_count_lag_4",
    "dep_external_count_lag_8",
    "dep_internal_male_lag_1",
    "dep_internal_male_lag_2",
    "dep_internal_male_lag_4",
    "dep_internal_male_lag_8",
    "dep_internal_female_lag_1",
    "dep_internal_female_lag_2",
    "dep_internal_female_lag_4",
    "dep_internal_female_lag_8",
    "dep_internal_young_lag_1",
    "dep_internal_young_lag_2",
    "dep_internal_young_lag_4",
    "dep_internal_young_lag_8",
    "dep_internal_count_rolling_mean_4",
    "dep_internal_count_rolling_std_4",
    "dep_internal_count_rolling_mean_8",
    "dep_internal_count_rolling_std_8",
    "dep_internal_count_rolling_mean_24",
    "dep_internal_count_rolling_std_24",
    "dep_external_count_rolling_mean_4",
    "dep_external_count_rolling_std_4",
    "dep_external_count_rolling_mean_8",
    "dep_external_count_rolling_std_8",
    "dep_external_count_rolling_mean_24",
    "dep_external_count_rolling_std_24",
    "dep_internal_male_rolling_mean_4",
    "dep_internal_male_rolling_std_4",
    "dep_internal_male_rolling_mean_8",
    "dep_internal_male_rolling_std_8",
    "dep_internal_male_rolling_mean_24",
    "dep_internal_male_rolling_std_24",
    "dep_internal_female_rolling_mean_4",
    "dep_internal_female_rolling_std_4",
    "dep_internal_female_rolling_mean_8",
    "dep_internal_female_rolling_std_8",
    "dep_internal_female_rolling_mean_24",
    "dep_internal_female_rolling_std_24",
    "dep_internal_young_rolling_mean_4",
    "dep_internal_young_rolling_std_4",
    "dep_internal_young_rolling_mean_8",
    "dep_internal_young_rolling_std_8",
    "dep_internal_young_rolling_mean_24",
    "dep_internal_young_rolling_std_24",
    "dep_internal_count_same_hour_yesterday",
    "dep_internal_count_same_hour_last_week",
    "dep_external_count_same_hour_yesterday",
    "dep_external_count_same_hour_last_week",
    "dep_internal_male_same_hour_yesterday",
    "dep_internal_male_same_hour_last_week",
    "dep_internal_female_same_hour_yesterday",
    "dep_internal_female_same_hour_last_week",
    "dep_internal_young_same_hour_yesterday",
    "dep_internal_young_same_hour_last_week",
    "dep_internal_adult_lag_1",
    "dep_internal_adult_lag_2",
    "dep_internal_adult_lag_4",
    "dep_internal_adult_lag_8",
    "dep_internal_senior_lag_1",
    "dep_internal_senior_lag_2",
    "dep_internal_senior_lag_4",
    "dep_internal_senior_lag_8",
    "dep_internal_model_iconic_lag_1",
    "dep_internal_model_iconic_lag_2",
    "dep_internal_model_iconic_lag_4",
    "dep_internal_model_iconic_lag_8",
    "dep_internal_duration_mean_lag_1",
    "dep_internal_duration_mean_lag_2",
    "dep_internal_duration_mean_lag_4",
    "dep_internal_duration_mean_lag_8",
    "arr_internal_count_lag_1",
    "arr_internal_count_lag_2",
    "arr_internal_count_lag_4",
    "arr_internal_count_lag_8",
    "dep_internal_adult_rolling_mean_4",
    "dep_internal_adult_rolling_std_4",
    "dep_internal_adult_rolling_mean_8",
    "dep_internal_adult_rolling_std_8",
    "dep_internal_adult_rolling_mean_24",
    "dep_internal_adult_rolling_std_24",
    "dep_internal_senior_rolling_mean_4",
    "dep_internal_senior_rolling_std_4",
    "dep_internal_senior_rolling_mean_8",
    "dep_internal_senior_rolling_std_8",
    "dep_internal_senior_rolling_mean_24",
    "dep_internal_senior_rolling_std_24",
    "dep_internal_model_iconic_rolling_mean_4",
    "dep_internal_model_iconic_rolling_std_4",
    "dep_internal_model_iconic_rolling_mean_8",
    "dep_internal_model_iconic_rolling_std_8",
    "dep_internal_model_iconic_rolling_mean_24",
    "dep_internal_model_iconic_rolling_std_24",
    "dep_internal_duration_mean_rolling_mean_4",
    "dep_internal_duration_mean_rolling_std_4",
    "dep_internal_duration_mean_rolling_mean_8",
    "dep_internal_duration_mean_rolling_std_8",
    "dep_internal_duration_mean_rolling_mean_24",
    "dep_internal_duration_mean_rolling_std_24",
    "arr_internal_count_rolling_mean_4",
    "arr_internal_count_rolling_std_4",
    "arr_internal_count_rolling_mean_8",
    "arr_internal_count_rolling_std_8",
    "arr_internal_count_rolling_mean_24",
    "arr_internal_count_rolling_std_24",
    "dep_internal_adult_same_hour_yesterday",
    "dep_internal_adult_same_hour_last_week",
    "dep_internal_senior_same_hour_yesterday",
    "dep_internal_senior_same_hour_last_week",
    "dep_internal_model_iconic_same_hour_yesterday",
    "dep_internal_model_iconic_same_hour_last_week",
    "dep_internal_duration_mean_same_hour_yesterday",
    "dep_internal_duration_mean_same_hour_last_week",
    "arr_internal_count_same_hour_yesterday",
    "arr_internal_count_same_hour_last_week",
    "arr_external_count_lag_1",
    "arr_external_count_lag_2",
    "arr_external_count_lag_4",
    "arr_external_count_lag_8",
    "arr_internal_male_lag_1",
    "arr_internal_male_lag_2",
    "arr_internal_male_lag_4",
    "arr_internal_male_lag_8",
    "arr_internal_female_lag_1",
    "arr_internal_female_lag_2",
    "arr_internal_female_lag_4",
    "arr_internal_female_lag_8",
    "arr_internal_young_lag_1",
    "arr_internal_young_lag_2",
    "arr_internal_young_lag_4",
    "arr_internal_young_lag_8",
    "arr_internal_adult_lag_1",
    "arr_internal_adult_lag_2",
    "arr_internal_adult_lag_4",
    "arr_internal_adult_lag_8",
    "arr_external_count_rolling_mean_4",
    "arr_external_count_rolling_std_4",
    "arr_external_count_rolling_mean_8",
    "arr_external_count_rolling_std_8",
    "arr_external_count_rolling_mean_24",
    "arr_external_count_rolling_std_24",
    "arr_internal_male_rolling_mean_4",
    "arr_internal_male_rolling_std_4",
    "arr_internal_male_rolling_mean_8",
    "arr_internal_male_rolling_std_8",
    "arr_internal_male_rolling_mean_24",
    "arr_internal_male_rolling_std_24",
    "arr_internal_female_rolling_mean_4",
    "arr_internal_female_rolling_std_4",
    "arr_internal_female_rolling_mean_8",
    "arr_internal_female_rolling_std_8",
    "arr_internal_female_rolling_mean_24",
    "arr_internal_female_rolling_std_24",
    "arr_internal_young_rolling_mean_4",
    "arr_internal_young_rolling_std_4",
    "arr_internal_young_rolling_mean_8",
    "arr_internal_young_rolling_std_8",
    "arr_internal_young_rolling_mean_24",
    "arr_internal_young_rolling_std_24",
    "arr_internal_adult_rolling_mean_4",
    "arr_internal_adult_rolling_std_4",
    "arr_internal_adult_rolling_mean_8",
    "arr_internal_adult_rolling_std_8",
    "arr_internal_adult_rolling_mean_24",
    "arr_internal_adult_rolling_std_24",
    "arr_external_count_same_hour_yesterday",
    "arr_external_count_same_hour_last_week",
    "arr_internal_male_same_hour_yesterday",
    "arr_internal_male_same_hour_last_week",
    "arr_internal_female_same_hour_yesterday",
    "arr_internal_female_same_hour_last_week",
    "arr_internal_young_same_hour_yesterday",
    "arr_internal_young_same_hour_last_week",
    "arr_internal_adult_same_hour_yesterday",
    "arr_internal_adult_same_hour_last_week",
    "arr_internal_senior_lag_1",
    "arr_internal_senior_lag_2",
    "arr_internal_senior_lag_4",
    "arr_internal_senior_lag_8",
    "arr_internal_model_iconic_lag_1",
    "arr_internal_model_iconic_lag_2",
    "arr_internal_model_iconic_lag_4",
    "arr_internal_model_iconic_lag_8",
    "has_dep_internal_lag_1",
    "has_dep_internal_lag_2",
    "has_dep_internal_lag_4",
    "has_dep_internal_lag_8",
    "has_dep_external_lag_1",
    "has_dep_external_lag_2",
    "has_dep_external_lag_4",
    "has_dep_external_lag_8",
    "has_arr_internal_lag_1",
    "has_arr_internal_lag_2",
    "has_arr_internal_lag_4",
    "has_arr_internal_lag_8",
    "arr_internal_senior_rolling_mean_4",
    "arr_internal_senior_rolling_std_4",
    "arr_internal_senior_rolling_mean_8",
    "arr_internal_senior_rolling_std_8",
    "arr_internal_senior_rolling_mean_24",
    "arr_internal_senior_rolling_std_24",
    "arr_internal_model_iconic_rolling_mean_4",
    "arr_internal_model_iconic_rolling_std_4",
    "arr_internal_model_iconic_rolling_mean_8",
    "arr_internal_model_iconic_rolling_std_8",
    "arr_internal_model_iconic_rolling_mean_24",
    "arr_internal_model_iconic_rolling_std_24",
    "has_dep_internal_rolling_mean_4",
    "has_dep_internal_rolling_std_4",
    "has_dep_internal_rolling_mean_8",
    "has_dep_internal_rolling_std_8",
    "has_dep_internal_rolling_mean_24",
    "has_dep_internal_rolling_std_24",
    "has_dep_external_rolling_mean_4",
    "has_dep_external_rolling_std_4",
    "has_dep_external_rolling_mean_8",
    "has_dep_external_rolling_std_8",
    "has_dep_external_rolling_mean_24",
    "has_dep_external_rolling_std_24",
    "has_arr_internal_rolling_mean_4",
    "has_arr_internal_rolling_std_4",
    "has_arr_internal_rolling_mean_8",
    "has_arr_internal_rolling_std_8",
    "has_arr_internal_rolling_mean_24",
    "has_arr_internal_rolling_std_24",
    "arr_internal_senior_same_hour_yesterday",
    "arr_internal_senior_same_hour_last_week",
    "arr_internal_model_iconic_same_hour_yesterday",
    "arr_internal_model_iconic_same_hour_last_week",
    "has_dep_internal_same_hour_yesterday",
    "has_dep_internal_same_hour_last_week",
    "has_dep_external_same_hour_yesterday",
    "has_dep_external_same_hour_last_week",
    "has_arr_internal_same_hour_yesterday",
    "has_arr_internal_same_hour_last_week",
    "has_arr_external_lag_1",
    "has_arr_external_lag_2",
    "has_arr_external_lag_4",
    "has_arr_external_lag_8",
    "has_arr_external_rolling_mean_4",
    "has_arr_external_rolling_std_4",
    "has_arr_external_rolling_mean_8",
    "has_arr_external_rolling_std_8",
    "has_arr_external_rolling_mean_24",
    "has_arr_external_rolling_std_24",
    "has_arr_external_same_hour_yesterday",
    "has_arr_external_same_hour_last_week",
    "has_short_term_lags",
    "has_daily_lags",
    "has_weekly_lags"
  ],
  "station_filtering": {
    "min_trips_threshold": 5000,
    "total_stations": 502,
    "active_stations": 369,
    "filtered_stations": 133,
    "station_retention_rate": 0.7350597609561753,
    "original_weather_trips": 12976053,
    "filtered_weather_trips": 12710594,
    "weather_trips_removed": 265459,
    "weather_trip_retention_rate": 0.9795423924362824,
    "original_trips": 12976469,
    "filtered_trips": 12710990,
    "trips_removed": 265479,
    "trip_retention_rate": 0.9795415070155064,
    "applied": true
  }
}